suchai1/orbit-stk/SUCHAI-passes.txt

Temporary template to schedule SUCHAI operations as a calendar
Upcoming passes for SUCHAI
Observer: GSSuchai, 
LAT:-33,46 LON:-70,66
-------------------------------------------------------------------------------------------------
 AOS                  TCA                  LOS                  Duration  Max El  AOS Az  LOS Az
-------------------------------------------------------------------------------------------------
 2017/10/13 01:14:00  2017/10/13 01:18:15  2017/10/13 01:22:31  00:08:31    8,09  136,13   40,59
	0.Borrar FP Física anterior
	0x5005 1407
	0x5007 28679
	0x5008 0
	0x8003 0         
	1.Nuevo FP Física Polo Norte (13 Oct 2017 01:49:00 UTC)
	0x5005 1369
	0x5007 24621
	0x5008 7
	0x8003 0  																
	2.Bajar datos LP
	(13 Oct 2017 01:49:00 UTC se ejecuta FP 1369 de física)
 2017/10/13 02:46:31  2017/10/13 02:52:15  2017/10/13 02:57:58  00:11:26   46,43  175,96  334,9
	0.Borrar FP Física anterior
	0x5005 1369
	0x5007 28679
	0x5008 0
	0x8003 0
	1.Nuevo FP Física Polo Sur (13 Oct 2017 15:15:00 UTC)
	0x5005 735
	0x5007 24621
	0x5008 7
	0x8003 0  
	1.Bajar Física
	2.Bajar otra cosa (?)
 2017/10/13 13:20:47  2017/10/13 13:26:21  2017/10/13 13:31:55  00:11:08   35,17   30,54  180,97
 2017/10/13 14:55:41  2017/10/13 15:00:15  2017/10/13 15:04:50  00:09:09   10,54  325,92  219,39
	(13 Oct 2017 15:15:00 UTC se ejecuta FP 735 de fisica)
	(13 Oct 2017 16:40 se terminan de recolectar datos de LP)
 2017/10/14 02:27:38  2017/10/14 02:33:27  2017/10/14 02:39:17  00:11:39   87,76  169,12  347,07
	0.Bajar Física
	1.Bajar LP
	2.Bajar otro.
 2017/10/14 13:02:25  2017/10/14 13:07:38  2017/10/14 13:12:50  00:10:25   20,26   43,36  173,73
 2017/10/14 14:36:06  2017/10/14 14:41:18  2017/10/14 14:46:31  00:10:25   18,88  340,55  209,98
 2017/10/15 02:08:51  2017/10/15 02:14:37  2017/10/15 02:20:23  00:11:31   47,56  162,13  359,26
 2017/10/15 03:43:38  2017/10/15 03:47:56  2017/10/15 03:52:14  00:08:35    8,80  198,94  295,18
 2017/10/15 12:44:18  2017/10/15 12:48:57  2017/10/15 12:53:35  00:09:17   11,84   57,17  165,70
 2017/10/15 14:16:49  2017/10/15 14:22:24  2017/10/15 14:27:59  00:11:09   33,37  353,76  201,94
 2017/10/16 01:50:13  2017/10/16 01:55:44  2017/10/16 02:01:14  00:11:01   26,05  154,66   11,89
 2017/10/16 03:24:16  2017/10/16 03:29:17  2017/10/16 03:34:17  00:10:01   15,56  190,27  309,69
 2017/10/16 12:26:32  2017/10/16 12:30:19  2017/10/16 12:34:05  00:07:33    6,16   72,95  155,99
 2017/10/16 13:57:46  2017/10/16 14:03:31  2017/10/16 14:09:16  00:11:29   64,08    6,27  194,67
 2017/10/17 01:31:45  2017/10/17 01:36:48  2017/10/17 01:41:50  00:10:04   14,98  146,23   25,46
 2017/10/17 03:05:06  2017/10/17 03:10:34  2017/10/17 03:16:02  00:10:56   26,35  182,75  322,82
 2017/10/17 13:38:57  2017/10/17 13:44:41  2017/10/17 13:50:26  00:11:28   65,87   18,52  187,72
 2017/10/18 01:13:33  2017/10/18 01:17:49  2017/10/18 01:22:04  00:08:30    7,99  135,94   40,93
 2017/10/18 02:46:04  2017/10/18 02:51:48  2017/10/18 02:57:33  00:11:28   47,29  175,77  335,25
 2017/10/18 13:20:20  2017/10/18 13:25:54  2017/10/18 13:31:28  00:11:07   34,62   30,89  180,80
 2017/10/18 14:55:12  2017/10/18 14:59:47  2017/10/18 15:04:23  00:09:11   10,72  326,30  219,11
 2017/10/19 02:27:09  2017/10/19 02:32:59  2017/10/19 02:38:50  00:11:40   88,05  168,94  347,39
 2017/10/19 13:01:57  2017/10/19 13:07:09  2017/10/19 13:12:21  00:10:24   19,97   43,74  173,54
 2017/10/19 14:35:36  2017/10/19 14:40:49  2017/10/19 14:46:02  00:10:26   19,18  340,91  209,71
 2017/10/20 02:08:22  2017/10/20 02:14:08  2017/10/20 02:19:54  00:11:32   46,80  161,95  359,59
 2017/10/20 03:43:07  2017/10/20 03:47:27  2017/10/20 03:51:47  00:08:40    9,01  198,57  295,69
 2017/10/20 12:43:49  2017/10/20 12:48:27  2017/10/20 12:53:04  00:09:15   11,66   57,61  165,48
 2017/10/20 14:16:18  2017/10/20 14:21:53  2017/10/20 14:27:29  00:11:10   33,97  354,12  201,71
 2017/10/21 01:49:42  2017/10/21 01:55:13  2017/10/21 02:00:44  00:11:01   25,71  154,47   12,24
 2017/10/21 03:23:44  2017/10/21 03:28:46  2017/10/21 03:33:49  00:10:04   15,87  189,97  310,13
 2017/10/21 12:26:02  2017/10/21 12:29:47  2017/10/21 12:33:33  00:07:30    6,03   73,48  155,72
 2017/10/21 13:57:14  2017/10/21 14:03:00  2017/10/21 14:08:45  00:11:30   65,41    6,64  194,45
 2017/10/22 01:31:14  2017/10/22 01:36:15  2017/10/22 01:41:17  00:10:03   14,79  146,02   25,85
 2017/10/22 03:04:33  2017/10/22 03:10:02  2017/10/22 03:15:32  00:10:59   26,87  182,49  323,23
 2017/10/22 13:38:24  2017/10/22 13:44:08  2017/10/22 13:49:53  00:11:28   64,48   18,91  187,51
 2017/10/22 15:14:39  2017/10/22 15:18:15  2017/10/22 15:21:50  00:07:10    5,08  309,33  230,87
 2017/10/23 01:13:01  2017/10/23 01:17:15  2017/10/23 01:21:29  00:08:28    7,86  135,68   41,40
 2017/10/23 02:45:30  2017/10/23 02:51:15  2017/10/23 02:57:01  00:11:30   48,34  175,53  335,64
 2017/10/23 13:19:46  2017/10/23 13:25:20  2017/10/23 13:30:53  00:11:07   33,99   31,30  180,59
 2017/10/23 14:54:35  2017/10/23 14:59:13  2017/10/23 15:03:50  00:09:15   10,96  326,81  218,71
 2017/10/24 02:26:34  2017/10/24 02:32:25  2017/10/24 02:38:16  00:11:41   87,18  168,71  347,78
 2017/10/24 13:01:22  2017/10/24 13:06:33  2017/10/24 13:11:45  00:10:23   19,65   44,19  173,32
 2017/10/24 14:34:58  2017/10/24 14:40:13  2017/10/24 14:45:28  00:10:29   19,57  341,38  209,39
 2017/10/25 02:07:45  2017/10/25 02:13:32  2017/10/25 02:19:18  00:11:32   45,86  161,73    0,00
 2017/10/25 03:42:29  2017/10/25 03:46:51  2017/10/25 03:51:14  00:08:45    9,25  198,16  296,27
 2017/10/25 12:43:13  2017/10/25 12:47:50  2017/10/25 12:52:27  00:09:13   11,45   58,11  165,24
 2017/10/25 14:15:40  2017/10/25 14:21:16  2017/10/25 14:26:52  00:11:12   34,74  354,57  201,43
 2017/10/26 01:49:05  2017/10/26 01:54:35  2017/10/26 02:00:06  00:11:01   25,27  154,23   12,68
 2017/10/26 03:23:05  2017/10/26 03:28:09  2017/10/26 03:33:13  00:10:08   16,22  189,63  310,63

 Orbit 1700
-------------------------------------------------------------
 Time                  Az      El  Range   Lat    Lon   Footp
-------------------------------------------------------------
 2017/10/13 01:14:00 136,13   0,00  2628 -47,67  -47,63  4989
 2017/10/13 01:14:25 132,92   1,14  2504 -46,08  -48,18  4987
 2017/10/13 01:14:51 129,40   2,26  2387 -44,49  -48,71  4985
 2017/10/13 01:15:16 125,53   3,36  2278 -42,90  -49,21  4983
 2017/10/13 01:15:42 121,29   4,41  2179 -41,31  -49,70  4981
 2017/10/13 01:16:07 116,67   5,40  2091 -39,71  -50,16  4979
 2017/10/13 01:16:33 111,66   6,28  2016 -38,11  -50,61  4977
 2017/10/13 01:16:59 106,29   7,02  1955 -36,52  -51,05  4975
 2017/10/13 01:17:24 100,60   7,59  1909 -34,92  -51,47  4973
 2017/10/13 01:17:50  94,68   7,96  1881 -33,31  -51,89  4971
 2017/10/13 01:18:15  88,63   8,09  1870 -31,71  -52,29  4969
 2017/10/13 01:18:41  82,57   7,98  1877 -30,11  -52,68  4967
 2017/10/13 01:19:06  76,61   7,63  1902 -28,50  -53,06  4965
 2017/10/13 01:19:32  70,87   7,08  1944 -26,90  -53,43  4963
 2017/10/13 01:19:58  65,43   6,34  2002 -25,29  -53,80  4961
 2017/10/13 01:20:23  60,34   5,46  2074 -23,69  -54,15  4960
 2017/10/13 01:20:49  55,64   4,47  2160 -22,08  -54,51  4958
 2017/10/13 01:21:14  51,33   3,40  2257 -20,47  -54,86  4956
 2017/10/13 01:21:40  47,40   2,29  2365 -18,86  -55,20  4955
 2017/10/13 01:22:05  43,83   1,15  2481 -17,25  -55,54  4954

 Orbit 1701
-------------------------------------------------------------
 Time                  Az      El  Range   Lat    Lon   Footp
-------------------------------------------------------------
 2017/10/13 02:46:31 175,96   0,00  2631 -55,83  -67,93  4999
 2017/10/13 02:47:06 177,00   2,26  2391 -53,71  -68,91  4996
 2017/10/13 02:47:40 178,30   4,77  2152 -51,60  -69,81  4994
 2017/10/13 02:48:14 179,96   7,61  1916 -49,47  -70,65  4991
 2017/10/13 02:48:49 182,16  10,92  1684 -47,34  -71,42  4989
 2017/10/13 02:49:23 185,16  14,88  1457 -45,21  -72,15  4986
 2017/10/13 02:49:57 189,46  19,77  1240 -43,07  -72,84  4983
 2017/10/13 02:50:32 195,99  25,95  1039 -40,93  -73,49  4981
 2017/10/13 02:51:06 206,66  33,66   866 -38,79  -74,11  4978
 2017/10/13 02:51:40 225,02  41,94   741 -36,64  -74,70  4975
 2017/10/13 02:52:15 253,57  46,43   691 -34,50  -75,27  4972
 2017/10/13 02:52:49 282,96  42,69   730 -32,35  -75,81  4970
 2017/10/13 02:53:23 302,45  34,48   848 -30,19  -76,34  4967
 2017/10/13 02:53:58 313,79  26,58  1016 -28,04  -76,85  4965
 2017/10/13 02:54:32 320,69  20,20  1215 -25,88  -77,35  4962
 2017/10/13 02:55:06 325,20  15,16  1430 -23,72  -77,83  4960
 2017/10/13 02:55:41 328,35  11,10  1656 -21,56  -78,30  4958
 2017/10/13 02:56:15 330,66   7,72  1888 -19,40  -78,77  4956
 2017/10/13 02:56:49 332,42   4,82  2124 -17,24  -79,22  4954
 2017/10/13 02:57:24 333,80   2,28  2362 -15,08  -79,67  4952
 2017/10/13 02:57:58 334,92  -0,00  2602 -12,91  -80,11  4950

 Orbit 1707
-------------------------------------------------------------
 Time                  Az      El  Range   Lat    Lon   Footp
-------------------------------------------------------------
 2017/10/13 13:20:47  30,54   0,00  2574 -13,94  -59,37  4904
 2017/10/13 13:21:21  32,14   2,19  2345 -16,05  -59,80  4906
 2017/10/13 13:21:54  34,09   4,60  2118 -18,16  -60,24  4908
 2017/10/13 13:22:27  36,54   7,31  1894 -20,27  -60,69  4911
 2017/10/13 13:23:01  39,69  10,41  1677 -22,38  -61,14  4914
 2017/10/13 13:23:34  43,87  14,02  1467 -24,49  -61,61  4917
 2017/10/13 13:24:08  49,61  18,28  1271 -26,59  -62,08  4920
 2017/10/13 13:24:41  57,77  23,25  1094 -28,69  -62,57  4923
 2017/10/13 13:25:14  69,65  28,68   950 -30,80  -63,07  4927
 2017/10/13 13:25:48  86,55  33,39   855 -32,90  -63,59  4930
 2017/10/13 13:26:21 107,64  35,17   825 -34,99  -64,13  4934
 2017/10/13 13:26:55 128,25  32,82   868 -37,09  -64,69  4938
 2017/10/13 13:27:28 144,25  27,92   974 -39,18  -65,27  4941
 2017/10/13 13:28:02 155,38  22,58  1125 -41,27  -65,87  4945
 2017/10/13 13:28:35 163,02  17,77  1305 -43,36  -66,51  4949
 2017/10/13 13:29:08 168,42  13,65  1505 -45,44  -67,19  4953
 2017/10/13 13:29:42 172,36  10,16  1716 -47,52  -67,90  4957
 2017/10/13 13:30:15 175,34   7,15  1935 -49,60  -68,66  4961
 2017/10/13 13:30:49 177,65   4,50  2159 -51,67  -69,48  4965
 2017/10/13 13:31:22 179,48   2,14  2387 -53,73  -70,36  4969

 Orbit 1708
-------------------------------------------------------------
 Time                  Az      El  Range   Lat    Lon   Footp
-------------------------------------------------------------
 2017/10/13 14:55:41 325,92   0,00  2575 -14,54  -83,17  4904
 2017/10/13 14:56:08 322,70   1,38  2429 -16,28  -83,53  4906
 2017/10/13 14:56:36 319,09   2,76  2290 -18,01  -83,89  4908
 2017/10/13 14:57:03 315,02   4,15  2160 -19,75  -84,26  4910
 2017/10/13 14:57:30 310,44   5,52  2041 -21,48  -84,63  4913
 2017/10/13 14:57:58 305,30   6,83  1935 -23,21  -85,01  4915
 2017/10/13 14:58:25 299,60   8,04  1844 -24,94  -85,39  4917
 2017/10/13 14:58:53 293,33   9,08  1771 -26,67  -85,78  4920
 2017/10/13 14:59:20 286,57   9,88  1718 -28,40  -86,18  4923
 2017/10/13 14:59:48 279,44  10,38  1686 -30,13  -86,59  4925
 2017/10/13 15:00:15 272,13  10,54  1678 -31,86  -87,01  4928
 2017/10/13 15:00:43 264,85  10,33  1693 -33,58  -87,45  4931
 2017/10/13 15:01:10 257,80   9,79  1730 -35,30  -87,89  4934
 2017/10/13 15:01:38 251,16   8,96  1789 -37,02  -88,35  4937
 2017/10/13 15:02:05 245,04   7,91  1867 -38,74  -88,83  4941
 2017/10/13 15:02:32 239,48   6,70  1962 -40,46  -89,32  4944
 2017/10/13 15:03:00 234,49   5,41  2072 -42,18  -89,83  4947
 2017/10/13 15:03:27 230,03   4,06  2193 -43,89  -90,36  4950
 2017/10/13 15:03:55 226,07   2,70  2325 -45,60  -90,92  4953
 2017/10/13 15:04:22 222,54   1,34  2464 -47,31  -91,51  4957

 Orbit 1716
-------------------------------------------------------------
 Time                  Az      El  Range   Lat    Lon   Footp
-------------------------------------------------------------
 2017/10/14 02:27:38 169,12   0,00  2632 -55,33  -63,41  5000
 2017/10/14 02:28:13 169,03   2,34  2384 -53,18  -64,38  4998
 2017/10/14 02:28:48 168,96   4,95  2137 -51,03  -65,28  4995
 2017/10/14 02:29:23 168,90   7,96  1890 -48,86  -66,12  4992
 2017/10/14 02:29:57 168,85  11,54  1645 -46,70  -66,89  4990
 2017/10/14 02:30:32 168,83  15,97  1404 -44,52  -67,62  4987
 2017/10/14 02:31:07 168,85  21,74  1169 -42,35  -68,31  4984
 2017/10/14 02:31:42 168,95  29,80   945 -40,17  -68,95  4982
 2017/10/14 02:32:17 169,23  41,87   743 -37,99  -69,57  4979
 2017/10/14 02:32:52 170,21  60,83   586 -35,80  -70,17  4976
 2017/10/14 02:33:27 200,58  87,76   517 -33,62  -70,73  4973
 2017/10/14 02:34:02 345,37  63,83   570 -31,43  -71,28  4970
 2017/10/14 02:34:37 346,58  43,69   718 -29,23  -71,81  4968
 2017/10/14 02:35:12 346,92  30,86   916 -27,04  -72,32  4965
 2017/10/14 02:35:47 347,05  22,39  1138 -24,85  -72,82  4963
 2017/10/14 02:36:22 347,11  16,37  1372 -22,65  -73,31  4960
 2017/10/14 02:36:57 347,13  11,79  1613 -20,45  -73,78  4958
 2017/10/14 02:37:32 347,12   8,12  1858 -18,25  -74,25  4956
 2017/10/14 02:38:07 347,11   5,04  2104 -16,05  -74,71  4954
 2017/10/14 02:38:42 347,09   2,37  2352 -13,85  -75,16  4952
 2017/10/14 02:39:17 347,07   0,00  2600 -11,64  -75,61  4951

 Orbit 1722
-------------------------------------------------------------
 Time                  Az      El  Range   Lat    Lon   Footp
-------------------------------------------------------------
 2017/10/14 13:02:25  43,36   0,00  2577 -16,42  -55,12  4906
 2017/10/14 13:02:56  45,85   1,89  2377 -18,40  -55,53  4908
 2017/10/14 13:03:27  48,81   3,91  2183 -20,38  -55,95  4910
 2017/10/14 13:03:59  52,36   6,07  1996 -22,35  -56,38  4913
 2017/10/14 13:04:30  56,68   8,39  1817 -24,32  -56,81  4916
 2017/10/14 13:05:01  61,97  10,86  1652 -26,30  -57,26  4919
 2017/10/14 13:05:32  68,51  13,42  1503 -28,27  -57,71  4922
 2017/10/14 13:06:04  76,54  15,95  1376 -30,23  -58,18  4925
 2017/10/14 13:06:35  86,22  18,18  1279 -32,20  -58,66  4929
 2017/10/14 13:07:06  97,42  19,74  1219 -34,17  -59,15  4932
 2017/10/14 13:07:38 109,51  20,26  1201 -36,13  -59,67  4936
 2017/10/14 13:08:09 121,52  19,60  1227 -38,09  -60,20  4939
 2017/10/14 13:08:40 132,48  17,96  1295 -40,05  -60,76  4943
 2017/10/14 13:09:11 141,87  15,70  1398 -42,00  -61,34  4947
 2017/10/14 13:09:43 149,61  13,19  1529 -43,96  -61,94  4950
 2017/10/14 13:10:14 155,89  10,67  1682 -45,91  -62,58  4954
 2017/10/14 13:10:45 160,98   8,25  1850 -47,85  -63,26  4958
 2017/10/14 13:11:17 165,12   5,97  2030 -49,80  -63,98  4962
 2017/10/14 13:11:48 168,52   3,85  2220 -51,74  -64,75  4965
 2017/10/14 13:12:19 171,35   1,86  2415 -53,67  -65,57  4969
 2017/10/14 13:12:50 173,73   0,00  2616 -55,60  -66,46  4973

 Orbit 1723
-------------------------------------------------------------
 Time                  Az      El  Range   Lat    Lon   Footp
-------------------------------------------------------------
 2017/10/14 14:36:06 340,55   0,00  2572 -12,44  -77,99  4901
 2017/10/14 14:36:37 337,84   1,85  2377 -14,42  -78,39  4903
 2017/10/14 14:37:08 334,67   3,81  2188 -16,40  -78,79  4905
 2017/10/14 14:37:39 330,89   5,89  2006 -18,37  -79,21  4908
 2017/10/14 14:38:11 326,36   8,11  1834 -20,34  -79,63  4910
 2017/10/14 14:38:42 320,87  10,44  1674 -22,32  -80,05  4913
 2017/10/14 14:39:13 314,21  12,82  1532 -24,29  -80,49  4916
 2017/10/14 14:39:44 306,16  15,12  1413 -26,26  -80,93  4919
 2017/10/14 14:40:16 296,66  17,10  1322 -28,23  -81,38  4922
 2017/10/14 14:40:47 285,85  18,45  1266 -30,19  -81,85  4925
 2017/10/14 14:41:18 274,32  18,88  1251 -32,16  -82,33  4929
 2017/10/14 14:41:49 262,88  18,29  1276 -34,12  -82,83  4932
 2017/10/14 14:42:21 252,34  16,83  1341 -36,08  -83,34  4936
 2017/10/14 14:42:52 243,16  14,80  1439 -38,04  -83,87  4939
 2017/10/14 14:43:23 235,43  12,52  1564 -40,00  -84,42  4943
 2017/10/14 14:43:54 229,04  10,18  1710 -41,95  -85,00  4947
 2017/10/14 14:44:26 223,77   7,91  1872 -43,90  -85,61  4950
 2017/10/14 14:44:57 219,39   5,75  2046 -45,85  -86,25  4954
 2017/10/14 14:45:28 215,73   3,72  2228 -47,80  -86,92  4958
 2017/10/14 14:46:00 212,63   1,81  2418 -49,74  -87,64  4962

 Orbit 1731
-------------------------------------------------------------
 Time                  Az      El  Range   Lat    Lon   Footp
-------------------------------------------------------------
 2017/10/15 02:08:51 162,13   0,00  2633 -54,38  -59,09  5001
 2017/10/15 02:09:26 160,92   2,26  2392 -52,25  -60,02  4998
 2017/10/15 02:10:00 159,46   4,77  2153 -50,12  -60,88  4996
 2017/10/15 02:10:35 157,65   7,62  1917 -47,98  -61,68  4993
 2017/10/15 02:11:10 155,34  10,94  1684 -45,83  -62,43  4991
 2017/10/15 02:11:44 152,26  14,92  1456 -43,68  -63,13  4988
 2017/10/15 02:12:19 147,92  19,86  1238 -41,53  -63,79  4985
 2017/10/15 02:12:53 141,39  26,13  1035 -39,38  -64,42  4982
 2017/10/15 02:13:28 130,76  34,03   860 -37,22  -65,03  4980
 2017/10/15 02:14:02 112,24  42,69   733 -35,06  -65,60  4977
 2017/10/15 02:14:37  82,75  47,56   680 -32,89  -66,16  4974
 2017/10/15 02:15:11  52,13  43,68   720 -30,73  -66,69  4971
 2017/10/15 02:15:46  32,16  35,09   838 -28,56  -67,21  4969
 2017/10/15 02:16:21  20,73  26,93  1008 -26,39  -67,71  4966
 2017/10/15 02:16:55  13,80  20,40  1208 -24,22  -68,20  4964
 2017/10/15 02:17:30   9,26  15,29  1424 -22,05  -68,68  4962
 2017/10/15 02:18:04   6,07  11,18  1651 -19,87  -69,15  4959
 2017/10/15 02:18:39   3,71   7,77  1884 -17,70  -69,61  4957
 2017/10/15 02:19:13   1,89   4,85  2121 -15,52  -70,06  4955
 2017/10/15 02:19:48   0,45   2,29  2361 -13,34  -70,51  4954
 2017/10/15 02:20:23 359,26  -0,00  2602 -11,16  -70,95  4952

 Orbit 1732
-------------------------------------------------------------
 Time                  Az      El  Range   Lat    Lon   Footp
-------------------------------------------------------------
 2017/10/15 03:43:38 198,94   0,00  2633 -54,20  -82,86  5001
 2017/10/15 03:44:04 202,01   1,21  2501 -52,61  -83,55  4999
 2017/10/15 03:44:30 205,42   2,42  2376 -51,02  -84,21  4997
 2017/10/15 03:44:56 209,21   3,60  2260 -49,42  -84,83  4995
 2017/10/15 03:45:21 213,41   4,75  2154 -47,82  -85,42  4993
 2017/10/15 03:45:47 218,04   5,83  2060 -46,22  -85,98  4991
 2017/10/15 03:46:13 223,11   6,80  1980 -44,62  -86,51  4989
 2017/10/15 03:46:39 228,59   7,62  1914 -43,01  -87,02  4987
 2017/10/15 03:47:05 234,43   8,26  1866 -41,41  -87,51  4985
 2017/10/15 03:47:30 240,55   8,66  1835 -39,80  -87,99  4983
 2017/10/15 03:47:56 246,81   8,80  1824 -38,19  -88,44  4981
 2017/10/15 03:48:22 253,08   8,66  1833 -36,58  -88,88  4979
 2017/10/15 03:48:48 259,22   8,27  1861 -34,96  -89,31  4977
 2017/10/15 03:49:13 265,11   7,64  1907 -33,35  -89,72  4975
 2017/10/15 03:49:39 270,64   6,82  1970 -31,73  -90,13  4973
 2017/10/15 03:50:05 275,77   5,84  2049 -30,12  -90,52  4971
 2017/10/15 03:50:31 280,46   4,76  2141 -28,50  -90,91  4969
 2017/10/15 03:50:57 284,72   3,61  2245 -26,88  -91,28  4967
 2017/10/15 03:51:22 288,58   2,42  2359 -25,26  -91,65  4965
 2017/10/15 03:51:48 292,05   1,21  2482 -23,64  -92,01  4963
 2017/10/15 03:52:14 295,18  -0,00  2613 -22,02  -92,37  4962

 Orbit 1737
-------------------------------------------------------------
 Time                  Az      El  Range   Lat    Lon   Footp
-------------------------------------------------------------
 2017/10/15 12:44:18  57,17   0,00  2580 -19,91  -51,09  4909
 2017/10/15 12:44:46  60,22   1,47  2425 -21,67  -51,47  4912
 2017/10/15 12:45:13  63,68   2,96  2276 -23,43  -51,85  4914
 2017/10/15 12:45:41  67,63   4,48  2136 -25,19  -52,24  4917
 2017/10/15 12:46:09  72,14   6,00  2007 -26,94  -52,64  4919
 2017/10/15 12:46:37  77,27   7,47  1890 -28,70  -53,05  4922
 2017/10/15 12:47:05  83,07   8,85  1790 -30,45  -53,47  4925
 2017/10/15 12:47:33  89,55  10,07  1708 -32,21  -53,90  4928
 2017/10/15 12:48:01  96,63  11,03  1648 -33,96  -54,34  4932
 2017/10/15 12:48:29 104,19  11,64  1612 -35,71  -54,79  4935
 2017/10/15 12:48:57 111,99  11,84  1602 -37,45  -55,26  4938
 2017/10/15 12:49:24 119,77  11,60  1617 -39,20  -55,75  4941
 2017/10/15 12:49:52 127,24  10,96  1659 -40,95  -56,26  4945
 2017/10/15 12:50:20 134,22   9,99  1724 -42,69  -56,78  4948
 2017/10/15 12:50:48 140,55   8,77  1809 -44,43  -57,33  4951
 2017/10/15 12:51:16 146,21   7,39  1914 -46,16  -57,91  4955
 2017/10/15 12:51:44 151,20   5,93  2033 -47,90  -58,52  4958
 2017/10/15 12:52:12 155,58   4,43  2165 -49,63  -59,15  4962
 2017/10/15 12:52:40 159,41   2,93  2307 -51,36  -59,83  4965
 2017/10/15 12:53:08 162,76   1,45  2458 -53,08  -60,55  4968

 Orbit 1738
-------------------------------------------------------------
 Time                  Az      El  Range   Lat    Lon   Footp
-------------------------------------------------------------
 2017/10/15 14:16:49 353,76   0,00  2570 -11,52  -73,04  4900
 2017/10/15 14:17:22 351,96   2,17  2343 -13,63  -73,47  4902
 2017/10/15 14:17:56 349,79   4,56  2117 -15,75  -73,90  4904
 2017/10/15 14:18:29 347,09   7,24  1896 -17,87  -74,34  4906
 2017/10/15 14:19:03 343,66  10,29  1681 -19,98  -74,79  4909
 2017/10/15 14:19:36 339,17  13,81  1475 -22,09  -75,24  4912
 2017/10/15 14:20:10 333,10  17,92  1283 -24,21  -75,71  4915
 2017/10/15 14:20:43 324,63  22,64  1112 -26,32  -76,18  4918
 2017/10/15 14:21:17 312,61  27,65   973 -28,43  -76,67  4922
 2017/10/15 14:21:50 296,06  31,87   882 -30,53  -77,17  4925
 2017/10/15 14:22:24 275,97  33,37   855 -32,64  -77,69  4929
 2017/10/15 14:22:57 256,38  31,24   897 -34,74  -78,22  4933
 2017/10/15 14:23:31 240,80  26,79  1000 -36,84  -78,78  4937
 2017/10/15 14:24:04 229,63  21,85  1147 -38,94  -79,36  4941
 2017/10/15 14:24:38 221,73  17,30  1324 -41,03  -79,97  4945
 2017/10/15 14:25:11 216,02  13,36  1519 -43,12  -80,60  4949
 2017/10/15 14:25:45 211,76   9,97  1727 -45,21  -81,27  4953
 2017/10/15 14:26:18 208,47   7,03  1943 -47,30  -81,98  4957
 2017/10/15 14:26:52 205,86   4,44  2164 -49,38  -82,74  4961
 2017/10/15 14:27:25 203,72   2,11  2388 -51,45  -83,55  4965
 2017/10/15 14:27:59 201,94  -0,00  2615 -53,52  -84,43  4969

 Orbit 1746
-------------------------------------------------------------
 Time                  Az      El  Range   Lat    Lon   Footp
-------------------------------------------------------------
 2017/10/16 01:50:13 154,66   0,00  2633 -52,91  -54,98  5001
 2017/10/16 01:50:46 152,44   2,03  2417 -50,87  -55,83  4999
 2017/10/16 01:51:19 149,81   4,22  2204 -48,82  -56,61  4996
 2017/10/16 01:51:52 146,63   6,62  1996 -46,77  -57,34  4994
 2017/10/16 01:52:25 142,71   9,27  1795 -44,72  -58,03  4991
 2017/10/16 01:52:58 137,78  12,21  1605 -42,66  -58,69  4988
 2017/10/16 01:53:31 131,46  15,45  1429 -40,60  -59,31  4986
 2017/10/16 01:54:04 123,26  18,89  1275 -38,54  -59,90  4983
 2017/10/16 01:54:38 112,65  22,26  1151 -36,47  -60,47  4980
 2017/10/16 01:55:11  99,41  24,92  1067 -34,41  -61,01  4978
 2017/10/16 01:55:44  84,22  26,05  1035 -32,34  -61,53  4975
 2017/10/16 01:56:17  68,85  25,16  1058 -30,27  -62,04  4973
 2017/10/16 01:56:50  55,23  22,63  1134 -28,19  -62,53  4970
 2017/10/16 01:57:23  44,22  19,28  1252 -26,12  -63,01  4968
 2017/10/16 01:57:56  35,69  15,78  1403 -24,04  -63,48  4965
 2017/10/16 01:58:29  29,13  12,47  1576 -21,96  -63,94  4963
 2017/10/16 01:59:02  24,03   9,46  1765 -19,88  -64,39  4961
 2017/10/16 01:59:35  20,01   6,75  1965 -17,80  -64,82  4959
 2017/10/16 02:00:08  16,77   4,29  2172 -15,72  -65,26  4957
 2017/10/16 02:00:41  14,11   2,06  2386 -13,63  -65,68  4955
 2017/10/16 02:01:14  11,89  -0,00  2603 -11,55  -66,11  4954

 Orbit 1747
-------------------------------------------------------------
 Time                  Az      El  Range   Lat    Lon   Footp
-------------------------------------------------------------
 2017/10/16 03:24:16 190,27   0,00  2634 -55,41  -77,53  5004
 2017/10/16 03:24:46 193,00   1,69  2453 -53,57  -78,38  5002
 2017/10/16 03:25:16 196,18   3,44  2278 -51,71  -79,17  5000
 2017/10/16 03:25:46 199,92   5,27  2110 -49,85  -79,90  4998
 2017/10/16 03:26:16 204,32   7,16  1953 -47,99  -80,60  4995
 2017/10/16 03:26:46 209,51   9,09  1809 -46,13  -81,25  4993
 2017/10/16 03:27:17 215,63  10,98  1682 -44,26  -81,87  4991
 2017/10/16 03:27:47 222,76  12,73  1575 -42,39  -82,45  4988
 2017/10/16 03:28:17 230,92  14,20  1493 -40,52  -83,02  4986
 2017/10/16 03:28:47 239,95  15,20  1441 -38,64  -83,55  4983
 2017/10/16 03:29:17 249,50  15,56  1422 -36,76  -84,07  4981
 2017/10/16 03:29:47 259,08  15,23  1437 -34,88  -84,57  4979
 2017/10/16 03:30:17 268,19  14,26  1485 -33,00  -85,05  4976
 2017/10/16 03:30:47 276,46  12,81  1563 -31,12  -85,52  4974
 2017/10/16 03:31:17 283,72  11,05  1667 -29,24  -85,97  4971
 2017/10/16 03:31:47 289,96   9,15  1793 -27,35  -86,41  4969
 2017/10/16 03:32:17 295,27   7,21  1935 -25,46  -86,84  4967
 2017/10/16 03:32:47 299,77   5,31  2090 -23,57  -87,27  4965
 2017/10/16 03:33:17 303,60   3,46  2256 -21,68  -87,68  4963
 2017/10/16 03:33:47 306,87   1,69  2430 -19,79  -88,09  4961

 Orbit 1753
-------------------------------------------------------------
 Time                  Az      El  Range   Lat    Lon   Footp
-------------------------------------------------------------
 2017/10/16 12:26:32  72,95   0,00  2586 -24,74  -47,38  4916
 2017/10/16 12:26:55  76,03   0,94  2485 -26,17  -47,70  4918
 2017/10/16 12:27:17  79,36   1,85  2391 -27,60  -48,03  4920
 2017/10/16 12:27:40  82,97   2,72  2305 -29,02  -48,37  4923
 2017/10/16 12:28:03  86,84   3,54  2228 -30,45  -48,71  4925
 2017/10/16 12:28:25  90,99   4,28  2161 -31,88  -49,05  4928
 2017/10/16 12:28:48  95,39   4,92  2105 -33,30  -49,41  4930
 2017/10/16 12:29:11 100,02   5,45  2061 -34,72  -49,78  4933
 2017/10/16 12:29:33 104,83   5,84  2029 -36,15  -50,15  4936
 2017/10/16 12:29:56 109,77   6,08  2010 -37,57  -50,53  4938
 2017/10/16 12:30:19 114,77   6,16  2005 -38,99  -50,93  4941
 2017/10/16 12:30:41 119,76   6,07  2014 -40,40  -51,34  4944
 2017/10/16 12:31:04 124,67   5,82  2036 -41,82  -51,76  4947
 2017/10/16 12:31:27 129,44   5,42  2071 -43,24  -52,19  4949
 2017/10/16 12:31:49 134,01   4,89  2119 -44,65  -52,64  4952
 2017/10/16 12:32:12 138,34   4,24  2179 -46,06  -53,11  4955
 2017/10/16 12:32:35 142,41   3,50  2249 -47,47  -53,60  4958
 2017/10/16 12:32:57 146,21   2,69  2328 -48,88  -54,11  4961
 2017/10/16 12:33:20 149,73   1,83  2417 -50,29  -54,65  4963
 2017/10/16 12:33:43 152,99   0,93  2513 -51,69  -55,21  4966
 2017/10/16 12:34:05 155,99  -0,00  2615 -53,09  -55,80  4969

 Orbit 1753
-------------------------------------------------------------
 Time                  Az      El  Range   Lat    Lon   Footp
-------------------------------------------------------------
 2017/10/16 13:57:46   6,27   0,00  2570 -11,52  -68,28  4899
 2017/10/16 13:58:21   5,60   2,34  2325 -13,70  -68,72  4901
 2017/10/16 13:58:55   4,78   4,96  2082 -15,88  -69,17  4903
 2017/10/16 13:59:30   3,75   7,98  1840 -18,06  -69,62  4906
 2017/10/16 14:00:04   2,40  11,57  1600 -20,24  -70,08  4909
 2017/10/16 14:00:39   0,54  16,01  1366 -22,42  -70,55  4912
 2017/10/16 14:01:13 357,82  21,77  1138 -24,59  -71,03  4915
 2017/10/16 14:01:48 353,41  29,65   925 -26,76  -71,52  4919
 2017/10/16 14:02:22 345,09  40,85   738 -28,94  -72,03  4923
 2017/10/16 14:02:57 325,24  55,64   603 -31,11  -72,55  4926
 2017/10/16 14:03:31 274,54  64,08   559 -33,27  -73,09  4930
 2017/10/16 14:04:06 230,46  52,72   626 -35,44  -73,64  4934
 2017/10/16 14:04:40 214,09  38,54   774 -37,60  -74,22  4938
 2017/10/16 14:05:15 206,85  28,16   968 -39,76  -74,83  4943
 2017/10/16 14:05:49 202,86  20,83  1185 -41,91  -75,47  4947
 2017/10/16 14:06:24 200,32  15,41  1413 -44,07  -76,14  4951
 2017/10/16 14:06:58 198,55  11,19  1649 -46,22  -76,85  4955
 2017/10/16 14:07:33 197,23   7,75  1888 -48,36  -77,60  4960
 2017/10/16 14:08:07 196,21   4,83  2130 -50,50  -78,41  4964
 2017/10/16 14:08:42 195,37   2,28  2373 -52,63  -79,28  4968

 Orbit 1761
-------------------------------------------------------------
 Time                  Az      El  Range   Lat    Lon   Footp
-------------------------------------------------------------
 2017/10/17 01:31:45 146,23   0,00  2633 -50,77  -51,10  5000
 2017/10/17 01:32:15 143,29   1,65  2456 -48,90  -51,82  4998
 2017/10/17 01:32:46 139,91   3,36  2285 -47,03  -52,49  4996
 2017/10/17 01:33:16 135,99   5,13  2122 -45,15  -53,13  4993
 2017/10/17 01:33:46 131,44   6,96  1968 -43,27  -53,74  4991
 2017/10/17 01:34:16 126,13   8,80  1828 -41,39  -54,31  4989
 2017/10/17 01:34:47 119,94  10,61  1703 -39,50  -54,86  4986
 2017/10/17 01:35:17 112,79  12,28  1599 -37,62  -55,39  4984
 2017/10/17 01:35:47 104,69  13,67  1519 -35,73  -55,90  4981
 2017/10/17 01:36:17  95,77  14,62  1468 -33,84  -56,39  4979
 2017/10/17 01:36:48  86,37  14,98  1448 -31,94  -56,87  4976
 2017/10/17 01:37:18  76,93  14,69  1462 -30,05  -57,33  4974
 2017/10/17 01:37:48  67,90  13,80  1507 -28,15  -57,78  4972
 2017/10/17 01:38:18  59,64  12,44  1582 -26,26  -58,22  4969
 2017/10/17 01:38:49  52,32  10,77  1682 -24,36  -58,65  4967
 2017/10/17 01:39:19  45,97   8,95  1804 -22,46  -59,07  4965
 2017/10/17 01:39:49  40,52   7,07  1942 -20,56  -59,48  4963
 2017/10/17 01:40:19  35,86   5,22  2094 -18,65  -59,88  4961
 2017/10/17 01:40:49  31,87   3,41  2257 -16,75  -60,28  4959
 2017/10/17 01:41:20  28,44   1,67  2428 -14,85  -60,68  4958

 Orbit 1762
-------------------------------------------------------------
 Time                  Az      El  Range   Lat    Lon   Footp
-------------------------------------------------------------
 2017/10/17 03:05:06 182,75   0,00  2635 -55,90  -72,53  5006
 2017/10/17 03:05:39 184,75   2,04  2417 -53,89  -73,47  5004
 2017/10/17 03:06:11 187,17   4,26  2203 -51,86  -74,34  5002
 2017/10/17 03:06:44 190,15   6,68  1994 -49,83  -75,15  4999
 2017/10/17 03:07:17 193,88   9,36  1792 -47,80  -75,90  4997
 2017/10/17 03:07:50 198,64  12,33  1600 -45,76  -76,61  4994
 2017/10/17 03:08:23 204,81  15,61  1424 -43,72  -77,28  4992
 2017/10/17 03:08:56 212,89  19,12  1269 -41,68  -77,91  4989
 2017/10/17 03:09:28 223,44  22,54  1144 -39,63  -78,51  4986
 2017/10/17 03:10:01 236,68  25,24  1061 -37,58  -79,09  4984
 2017/10/17 03:10:34 251,90  26,35  1029 -35,53  -79,64  4981
 2017/10/17 03:11:07 267,24  25,40  1054 -33,48  -80,17  4978
 2017/10/17 03:11:40 280,76  22,79  1131 -31,42  -80,68  4976
 2017/10/17 03:12:13 291,62  19,37  1252 -29,36  -81,18  4973
 2017/10/17 03:12:45 299,96  15,83  1404 -27,30  -81,66  4971
 2017/10/17 03:13:18 306,34  12,50  1578 -25,24  -82,13  4968
 2017/10/17 03:13:51 311,26   9,47  1768 -23,18  -82,59  4966
 2017/10/17 03:14:24 315,12   6,75  1968 -21,11  -83,04  4964
 2017/10/17 03:14:57 318,21   4,29  2177 -19,05  -83,48  4962
 2017/10/17 03:15:30 320,73   2,06  2390 -16,98  -83,92  4960

 Orbit 1768
-------------------------------------------------------------
 Time                  Az      El  Range   Lat    Lon   Footp
-------------------------------------------------------------
 2017/10/17 13:38:57  18,52   0,00  2571 -12,36  -63,68  4899
 2017/10/17 13:39:31  19,04   2,34  2326 -14,54  -64,13  4901
 2017/10/17 13:40:06  19,69   4,97  2082 -16,71  -64,57  4904
 2017/10/17 13:40:40  20,54   7,99  1840 -18,89  -65,03  4907
 2017/10/17 13:41:15  21,67  11,59  1600 -21,06  -65,49  4910
 2017/10/17 13:41:49  23,26  16,05  1364 -23,24  -65,97  4913
 2017/10/17 13:42:24  25,66  21,84  1137 -25,41  -66,45  4916
 2017/10/17 13:42:58  29,63  29,80   922 -27,58  -66,95  4920
 2017/10/17 13:43:33  37,30  41,23   734 -29,74  -67,46  4924
 2017/10/17 13:44:07  56,37  56,65   597 -31,91  -67,98  4928
 2017/10/17 13:44:41 109,61  65,87   552 -34,07  -68,53  4932
 2017/10/17 13:45:16 155,45  53,68   619 -36,23  -69,09  4936
 2017/10/17 13:45:50 171,10  38,95   769 -38,39  -69,68  4940
 2017/10/17 13:46:25 177,74  28,36   964 -40,55  -70,30  4944
 2017/10/17 13:46:59 181,30  20,94  1182 -42,70  -70,94  4949
 2017/10/17 13:47:34 183,47  15,48  1411 -44,85  -71,63  4953
 2017/10/17 13:48:08 184,93  11,23  1648 -46,99  -72,35  4957
 2017/10/17 13:48:43 185,96   7,77  1888 -49,13  -73,12  4962
 2017/10/17 13:49:17 186,71   4,84  2130 -51,26  -73,95  4966
 2017/10/17 13:49:51 187,28   2,28  2374 -53,39  -74,85  4970
 2017/10/17 13:50:26 187,72  -0,00  2618 -55,52  -75,82  4975

 Orbit 1776
-------------------------------------------------------------
 Time                  Az      El  Range   Lat    Lon   Footp
-------------------------------------------------------------
 2017/10/18 01:13:33 135,94   0,00  2633 -47,63  -47,52  4998
 2017/10/18 01:13:59 132,74   1,13  2510 -46,04  -48,07  4996
 2017/10/18 01:14:24 129,22   2,24  2394 -44,46  -48,59  4994
 2017/10/18 01:14:50 125,37   3,33  2286 -42,87  -49,10  4992
 2017/10/18 01:15:15 121,14   4,37  2188 -41,28  -49,58  4990
 2017/10/18 01:15:41 116,54   5,34  2101 -39,69  -50,05  4988
 2017/10/18 01:16:07 111,56   6,21  2026 -38,10  -50,50  4986
 2017/10/18 01:16:32 106,22   6,95  1966 -36,51  -50,93  4984
 2017/10/18 01:16:58 100,58   7,51  1921 -34,91  -51,35  4982
 2017/10/18 01:17:23  94,72   7,86  1893 -33,31  -51,76  4980
 2017/10/18 01:17:49  88,72   7,99  1882 -31,72  -52,16  4978
 2017/10/18 01:18:14  82,71   7,89  1889 -30,12  -52,55  4976
 2017/10/18 01:18:40  76,80   7,55  1913 -28,52  -52,93  4974
 2017/10/18 01:19:05  71,10   7,00  1954 -26,91  -53,31  4972
 2017/10/18 01:19:31  65,70   6,27  2012 -25,31  -53,67  4970
 2017/10/18 01:19:56  60,64   5,40  2083 -23,71  -54,03  4968
 2017/10/18 01:20:22  55,96   4,43  2168 -22,11  -54,38  4966
 2017/10/18 01:20:47  51,66   3,37  2265 -20,50  -54,73  4964
 2017/10/18 01:21:13  47,74   2,27  2371 -18,90  -55,07  4963
 2017/10/18 01:21:38  44,17   1,14  2486 -17,29  -55,41  4961
 2017/10/18 01:22:04  40,93  -0,00  2609 -15,68  -55,74  4960

 Orbit 1777
-------------------------------------------------------------
 Time                  Az      El  Range   Lat    Lon   Footp
-------------------------------------------------------------
 2017/10/18 02:46:04 175,77   0,00  2637 -55,86  -67,79  5008
 2017/10/18 02:46:38 176,77   2,27  2396 -53,74  -68,77  5006
 2017/10/18 02:47:13 178,04   4,78  2156 -51,62  -69,68  5003
 2017/10/18 02:47:47 179,66   7,64  1919 -49,49  -70,52  5001
 2017/10/18 02:48:22 181,80  10,96  1686 -47,36  -71,30  4998
 2017/10/18 02:48:56 184,73  14,95  1458 -45,22  -72,03  4996
 2017/10/18 02:49:30 188,93  19,89  1240 -43,08  -72,72  4993
 2017/10/18 02:50:05 195,34  26,16  1038 -40,93  -73,37  4990
 2017/10/18 02:50:39 205,90  34,02   863 -38,78  -73,99  4987
 2017/10/18 02:51:14 224,31  42,57   736 -36,63  -74,58  4984
 2017/10/18 02:51:48 253,48  47,29   685 -34,48  -75,15  4981
 2017/10/18 02:52:23 283,60  43,41   725 -32,32  -75,70  4979
 2017/10/18 02:52:57 303,26  34,92   843 -30,16  -76,22  4976
 2017/10/18 02:53:32 314,53  26,83  1013 -28,00  -76,74  4973
 2017/10/18 02:54:06 321,33  20,35  1213 -25,84  -77,23  4971
 2017/10/18 02:54:40 325,75  15,26  1429 -23,68  -77,72  4968
 2017/10/18 02:55:15 328,84  11,16  1656 -21,51  -78,19  4966
 2017/10/18 02:55:49 331,09   7,76  1889 -19,35  -78,66  4963
 2017/10/18 02:56:24 332,81   4,85  2126 -17,18  -79,11  4961
 2017/10/18 02:56:58 334,16   2,29  2365 -15,01  -79,56  4959

 Orbit 1784
-------------------------------------------------------------
 Time                  Az      El  Range   Lat    Lon   Footp
-------------------------------------------------------------
 2017/10/18 13:20:20  30,89   0,00  2572 -14,01  -59,25  4900
 2017/10/18 13:20:54  32,51   2,19  2343 -16,12  -59,69  4903
 2017/10/18 13:21:27  34,50   4,59  2117 -18,23  -60,13  4905
 2017/10/18 13:22:00  37,00   7,29  1894 -20,33  -60,57  4908
 2017/10/18 13:22:34  40,20  10,38  1678 -22,44  -61,03  4912
 2017/10/18 13:23:07  44,44  13,97  1469 -24,54  -61,49  4915
 2017/10/18 13:23:40  50,24  18,18  1274 -26,65  -61,97  4918
 2017/10/18 13:24:14  58,47  23,08  1099 -28,75  -62,46  4922
 2017/10/18 13:24:47  70,37  28,38   957 -30,85  -62,96  4926
 2017/10/18 13:25:21  87,13  32,93   863 -32,95  -63,48  4930
 2017/10/18 13:25:54 107,86  34,62   834 -35,04  -64,01  4934
 2017/10/18 13:26:27 128,09  32,33   877 -37,13  -64,57  4938
 2017/10/18 13:27:01 143,90  27,57   982 -39,22  -65,15  4942
 2017/10/18 13:27:34 154,98  22,36  1133 -41,31  -65,76  4946
 2017/10/18 13:28:07 162,65  17,62  1312 -43,39  -66,40  4951
 2017/10/18 13:28:41 168,08  13,57  1510 -45,48  -67,07  4955
 2017/10/18 13:29:14 172,06  10,10  1721 -47,55  -67,78  4959
 2017/10/18 13:29:48 175,08   7,11  1939 -49,62  -68,55  4964
 2017/10/18 13:30:21 177,42   4,49  2162 -51,69  -69,36  4968
 2017/10/18 13:30:54 179,28   2,13  2389 -53,75  -70,24  4972

 Orbit 1785
-------------------------------------------------------------
 Time                  Az      El  Range   Lat    Lon   Footp
-------------------------------------------------------------
 2017/10/18 14:55:12 326,30   0,00  2573 -14,49  -83,03  4901
 2017/10/18 14:55:39 323,09   1,39  2425 -16,23  -83,39  4903
 2017/10/18 14:56:07 319,47   2,80  2285 -17,97  -83,76  4905
 2017/10/18 14:56:34 315,39   4,20  2154 -19,72  -84,12  4908
 2017/10/18 14:57:02 310,80   5,59  2034 -21,46  -84,50  4910
 2017/10/18 14:57:29 305,64   6,93  1926 -23,20  -84,88  4913
 2017/10/18 14:57:57 299,89   8,16  1834 -24,93  -85,26  4916
 2017/10/18 14:58:25 293,57   9,22  1760 -26,67  -85,66  4918
 2017/10/18 14:58:52 286,74  10,04  1706 -28,41  -86,06  4922
 2017/10/18 14:59:20 279,53  10,56  1674 -30,14  -86,47  4925
 2017/10/18 14:59:47 272,13  10,72  1666 -31,88  -86,89  4928
 2017/10/18 15:00:15 264,77  10,50  1681 -33,61  -87,33  4931
 2017/10/18 15:00:42 257,65   9,95  1720 -35,34  -87,77  4934
 2017/10/18 15:01:10 250,95   9,09  1780 -37,07  -88,23  4938
 2017/10/18 15:01:38 244,78   8,02  1859 -38,79  -88,71  4941
 2017/10/18 15:02:05 239,20   6,80  1956 -40,52  -89,21  4945
 2017/10/18 15:02:33 234,19   5,48  2066 -42,24  -89,72  4948
 2017/10/18 15:03:00 229,73   4,11  2189 -43,96  -90,26  4952
 2017/10/18 15:03:28 225,77   2,73  2322 -45,68  -90,82  4955
 2017/10/18 15:03:55 222,24   1,36  2464 -47,39  -91,41  4959

 Orbit 1792
-------------------------------------------------------------
 Time                  Az      El  Range   Lat    Lon   Footp
-------------------------------------------------------------
 2017/10/19 02:27:09 168,94   0,00  2638 -55,36  -63,27  5010
 2017/10/19 02:27:44 168,82   2,34  2389 -53,20  -64,25  5007
 2017/10/19 02:28:19 168,71   4,96  2141 -51,04  -65,15  5005
 2017/10/19 02:28:54 168,60   7,98  1894 -48,87  -65,98  5002
 2017/10/19 02:29:29 168,49  11,56  1649 -46,70  -66,76  4999
 2017/10/19 02:30:04 168,38  15,99  1408 -44,53  -67,49  4996
 2017/10/19 02:30:39 168,27  21,77  1172 -42,35  -68,18  4994
 2017/10/19 02:31:14 168,15  29,83   948 -40,16  -68,83  4991
 2017/10/19 02:31:49 168,01  41,89   745 -37,98  -69,45  4988
 2017/10/19 02:32:24 167,77  60,85   588 -35,79  -70,04  4985
 2017/10/19 02:32:59 162,88  88,05   519 -33,60  -70,61  4982
 2017/10/19 02:33:34 348,29  63,93   572 -31,41  -71,16  4979
 2017/10/19 02:34:09 348,02  43,77   720 -29,21  -71,69  4976
 2017/10/19 02:34:45 347,89  30,92   918 -27,01  -72,20  4973
 2017/10/19 02:35:20 347,79  22,43  1140 -24,81  -72,70  4971
 2017/10/19 02:35:55 347,71  16,39  1375 -22,61  -73,19  4968
 2017/10/19 02:36:30 347,63  11,81  1616 -20,41  -73,67  4966
 2017/10/19 02:37:05 347,57   8,13  1861 -18,20  -74,13  4963
 2017/10/19 02:37:40 347,50   5,04  2108 -16,00  -74,59  4961
 2017/10/19 02:38:15 347,44   2,37  2356 -13,79  -75,05  4959

 Orbit 1799
-------------------------------------------------------------
 Time                  Az      El  Range   Lat    Lon   Footp
-------------------------------------------------------------
 2017/10/19 13:01:57  43,74   0,00  2575 -16,52  -55,00  4903
 2017/10/19 13:02:28  46,26   1,88  2377 -18,49  -55,42  4906
 2017/10/19 13:02:59  49,25   3,89  2184 -20,46  -55,84  4908
 2017/10/19 13:03:30  52,83   6,04  1997 -22,43  -56,26  4911
 2017/10/19 13:04:02  57,17   8,34  1821 -24,40  -56,70  4915
 2017/10/19 13:04:33  62,48  10,78  1656 -26,37  -57,14  4918
 2017/10/19 13:05:04  69,02  13,30  1509 -28,34  -57,59  4922
 2017/10/19 13:05:35  77,04  15,78  1384 -30,30  -58,06  4925
 2017/10/19 13:06:06  86,66  17,96  1289 -32,26  -58,54  4929
 2017/10/19 13:06:38  97,75  19,47  1229 -34,22  -59,04  4933
 2017/10/19 13:07:09 109,69  19,97  1212 -36,18  -59,55  4937
 2017/10/19 13:07:40 121,54  19,33  1238 -38,14  -60,08  4940
 2017/10/19 13:08:11 132,37  17,72  1306 -40,09  -60,64  4944
 2017/10/19 13:08:43 141,68  15,51  1408 -42,04  -61,21  4949
 2017/10/19 13:09:14 149,38  13,05  1538 -43,99  -61,82  4953
 2017/10/19 13:09:45 155,64  10,57  1689 -45,94  -62,46  4957
 2017/10/19 13:10:16 160,73   8,18  1857 -47,88  -63,14  4961
 2017/10/19 13:10:47 164,88   5,93  2036 -49,82  -63,85  4965
 2017/10/19 13:11:19 168,30   3,82  2224 -51,75  -64,62  4969
 2017/10/19 13:11:50 171,14   1,85  2419 -53,68  -65,44  4973

 Orbit 1800
-------------------------------------------------------------
 Time                  Az      El  Range   Lat    Lon   Footp
-------------------------------------------------------------
 2017/10/19 14:35:36 340,91   0,00  2570 -12,42  -77,85  4898
 2017/10/19 14:36:07 338,23   1,86  2374 -14,40  -78,25  4900
 2017/10/19 14:36:38 335,06   3,84  2184 -16,38  -78,66  4903
 2017/10/19 14:37:10 331,30   5,94  2000 -18,36  -79,07  4905
 2017/10/19 14:37:41 326,77   8,19  1827 -20,34  -79,49  4908
 2017/10/19 14:38:12 321,28  10,55  1666 -22,32  -79,92  4911
 2017/10/19 14:38:44 314,60  12,97  1523 -24,30  -80,35  4915
 2017/10/19 14:39:15 306,50  15,32  1402 -26,27  -80,80  4918
 2017/10/19 14:39:46 296,90  17,35  1311 -28,25  -81,25  4921
 2017/10/19 14:40:18 285,96  18,74  1255 -30,22  -81,72  4925
 2017/10/19 14:40:49 274,26  19,18  1239 -32,19  -82,20  4929
 2017/10/19 14:41:20 262,68  18,56  1265 -34,16  -82,70  4933
 2017/10/19 14:41:52 252,03  17,05  1331 -36,12  -83,22  4936
 2017/10/19 14:42:23 242,79  14,98  1431 -38,09  -83,75  4940
 2017/10/19 14:42:54 235,05  12,64  1557 -40,05  -84,30  4944
 2017/10/19 14:43:26 228,66  10,27  1705 -42,01  -84,89  4948
 2017/10/19 14:43:57 223,41   7,97  1869 -43,96  -85,49  4953
 2017/10/19 14:44:28 219,05   5,79  2044 -45,92  -86,14  4957
 2017/10/19 14:45:00 215,42   3,74  2228 -47,87  -86,81  4961
 2017/10/19 14:45:31 212,34   1,82  2419 -49,81  -87,53  4965
 2017/10/19 14:46:02 209,71   0,00  2615 -51,75  -88,30  4969

 Orbit 1807
-------------------------------------------------------------
 Time                  Az      El  Range   Lat    Lon   Footp
-------------------------------------------------------------
 2017/10/20 02:08:22 161,95   0,00  2638 -54,39  -58,95  5010
 2017/10/20 02:08:56 160,71   2,26  2398 -52,26  -59,89  5008
 2017/10/20 02:09:31 159,22   4,77  2159 -50,12  -60,75  5005
 2017/10/20 02:10:05 157,37   7,61  1923 -47,98  -61,55  5003
 2017/10/20 02:10:40 155,01  10,92  1690 -45,83  -62,29  5000
 2017/10/20 02:11:15 151,86  14,88  1463 -43,68  -63,00  4997
 2017/10/20 02:11:49 147,44  19,78  1245 -41,53  -63,66  4994
 2017/10/20 02:12:24 140,82  25,97  1043 -39,37  -64,29  4991
 2017/10/20 02:12:58 130,11  33,71   869 -37,21  -64,89  4988
 2017/10/20 02:13:33 111,72  42,11   742 -35,05  -65,47  4985
 2017/10/20 02:14:08  82,91  46,80   690 -32,88  -66,03  4983
 2017/10/20 02:14:42  52,96  43,12   728 -30,72  -66,56  4980
 2017/10/20 02:15:17  33,08  34,82   845 -28,55  -67,08  4977
 2017/10/20 02:15:51  21,53  26,81  1014 -26,38  -67,58  4974
 2017/10/20 02:16:26  14,48  20,35  1213 -24,20  -68,07  4971
 2017/10/20 02:17:01   9,84  15,27  1429 -22,03  -68,55  4969
 2017/10/20 02:17:35   6,57  11,17  1655 -19,85  -69,02  4966
 2017/10/20 02:18:10   4,16   7,77  1888 -17,67  -69,48  4964
 2017/10/20 02:18:45   2,29   4,85  2125 -15,50  -69,93  4962
 2017/10/20 02:19:19   0,81   2,29  2364 -13,32  -70,38  4960

 Orbit 1808
-------------------------------------------------------------
 Time                  Az      El  Range   Lat    Lon   Footp
-------------------------------------------------------------
 2017/10/20 03:43:07 198,57   0,00  2638 -54,30  -82,68  5010
 2017/10/20 03:43:33 201,63   1,23  2504 -52,70  -83,38  5008
 2017/10/20 03:43:59 205,04   2,46  2377 -51,09  -84,05  5007
 2017/10/20 03:44:25 208,84   3,67  2259 -49,48  -84,67  5005
 2017/10/20 03:44:51 213,06   4,84  2151 -47,87  -85,27  5003
 2017/10/20 03:45:17 217,72   5,95  2055 -46,26  -85,83  5001
 2017/10/20 03:45:43 222,84   6,95  1973 -44,64  -86,37  4998
 2017/10/20 03:46:09 228,38   7,80  1906 -43,02  -86,89  4996
 2017/10/20 03:46:35 234,30   8,45  1856 -41,40  -87,38  4994
 2017/10/20 03:47:01 240,50   8,87  1825 -39,78  -87,86  4992
 2017/10/20 03:47:27 246,86   9,01  1814 -38,15  -88,32  4990
 2017/10/20 03:47:53 253,23   8,87  1823 -36,53  -88,76  4987
 2017/10/20 03:48:19 259,46   8,47  1851 -34,90  -89,19  4985
 2017/10/20 03:48:45 265,42   7,82  1898 -33,27  -89,61  4983
 2017/10/20 03:49:11 271,02   6,97  1963 -31,64  -90,02  4981
 2017/10/20 03:49:37 276,20   5,97  2043 -30,01  -90,41  4979
 2017/10/20 03:50:03 280,93   4,86  2137 -28,38  -90,80  4977
 2017/10/20 03:50:29 285,22   3,68  2243 -26,74  -91,18  4975
 2017/10/20 03:50:55 289,08   2,47  2359 -25,11  -91,55  4973
 2017/10/20 03:51:21 292,56   1,23  2484 -23,48  -91,92  4971

 Orbit 1814
-------------------------------------------------------------
 Time                  Az      El  Range   Lat    Lon   Footp
-------------------------------------------------------------
 2017/10/20 12:43:49  57,61   0,00  2580 -20,04  -50,98  4908
 2017/10/20 12:44:17  60,67   1,46  2425 -21,79  -51,35  4910
 2017/10/20 12:44:44  64,15   2,94  2278 -23,54  -51,74  4913
 2017/10/20 12:45:12  68,10   4,44  2139 -25,29  -52,13  4916
 2017/10/20 12:45:40  72,61   5,93  2012 -27,04  -52,53  4919
 2017/10/20 12:46:08  77,73   7,39  1897 -28,79  -52,93  4923
 2017/10/20 12:46:36  83,51   8,74  1798 -30,54  -53,35  4926
 2017/10/20 12:47:03  89,94   9,93  1718 -32,29  -53,78  4929
 2017/10/20 12:47:31  96,96  10,87  1659 -34,03  -54,22  4933
 2017/10/20 12:47:59 104,44  11,46  1623 -35,77  -54,67  4936
 2017/10/20 12:48:27 112,15  11,66  1613 -37,51  -55,14  4940
 2017/10/20 12:48:54 119,83  11,42  1629 -39,25  -55,63  4943
 2017/10/20 12:49:22 127,22  10,80  1670 -40,99  -56,13  4947
 2017/10/20 12:49:50 134,12   9,84  1735 -42,73  -56,66  4951
 2017/10/20 12:50:18 140,41   8,65  1820 -44,46  -57,20  4954
 2017/10/20 12:50:46 146,03   7,30  1923 -46,19  -57,78  4958
 2017/10/20 12:51:13 151,00   5,86  2041 -47,92  -58,38  4962
 2017/10/20 12:51:41 155,36   4,38  2171 -49,64  -59,02  4965
 2017/10/20 12:52:09 159,19   2,90  2312 -51,36  -59,70  4969
 2017/10/20 12:52:37 162,54   1,44  2462 -53,08  -60,41  4973
 2017/10/20 12:53:04 165,48   0,00  2618 -54,79  -61,18  4976

 Orbit 1815
-------------------------------------------------------------
 Time                  Az      El  Range   Lat    Lon   Footp
-------------------------------------------------------------
 2017/10/20 14:16:18 354,12   0,00  2569 -11,52  -72,90  4897
 2017/10/20 14:16:51 352,35   2,18  2340 -13,64  -73,33  4899
 2017/10/20 14:17:25 350,21   4,59  2114 -15,76  -73,76  4902
 2017/10/20 14:17:58 347,55   7,28  1892 -17,88  -74,20  4905
 2017/10/20 14:18:32 344,16  10,36  1676 -20,00  -74,65  4908
 2017/10/20 14:19:06 339,72  13,92  1469 -22,11  -75,11  4911
 2017/10/20 14:19:39 333,68  18,09  1275 -24,23  -75,57  4915
 2017/10/20 14:20:13 325,22  22,91  1103 -26,34  -76,05  4918
 2017/10/20 14:20:46 313,12  28,07   963 -28,45  -76,54  4922
 2017/10/20 14:21:20 296,32  32,43   871 -30,56  -77,04  4926
 2017/10/20 14:21:53 275,82  33,97   844 -32,67  -77,56  4930
 2017/10/20 14:22:27 255,87  31,72   888 -34,78  -78,09  4934
 2017/10/20 14:23:00 240,18  27,11   993 -36,88  -78,65  4938
 2017/10/20 14:23:34 229,02  22,04  1142 -38,98  -79,23  4943
 2017/10/20 14:24:07 221,19  17,41  1320 -41,08  -79,84  4947
 2017/10/20 14:24:41 215,56  13,42  1517 -43,17  -80,48  4952
 2017/10/20 14:25:14 211,36  10,01  1726 -45,26  -81,15  4956
 2017/10/20 14:25:48 208,12   7,05  1943 -47,35  -81,86  4961
 2017/10/20 14:26:22 205,55   4,45  2165 -49,43  -82,62  4965
 2017/10/20 14:26:55 203,46   2,12  2390 -51,51  -83,44  4969

 Orbit 1822
-------------------------------------------------------------
 Time                  Az      El  Range   Lat    Lon   Footp
-------------------------------------------------------------
 2017/10/21 01:49:42 154,47   0,00  2639 -52,90  -54,85  5010
 2017/10/21 01:50:15 152,24   2,02  2423 -50,86  -55,69  5008
 2017/10/21 01:50:48 149,58   4,21  2210 -48,82  -56,47  5005
 2017/10/21 01:51:21 146,38   6,60  2003 -46,77  -57,21  5003
 2017/10/21 01:51:55 142,43   9,23  1803 -44,71  -57,90  5000
 2017/10/21 01:52:28 137,48  12,14  1614 -42,66  -58,55  4997
 2017/10/21 01:53:01 131,15  15,33  1439 -40,60  -59,17  4995
 2017/10/21 01:53:34 122,96  18,72  1286 -38,54  -59,76  4992
 2017/10/21 01:54:07 112,43  22,01  1163 -36,47  -60,33  4989
 2017/10/21 01:54:40  99,33  24,61  1080 -34,40  -60,87  4986
 2017/10/21 01:55:13  84,35  25,71  1047 -32,33  -61,40  4983
 2017/10/21 01:55:46  69,20  24,86  1070 -30,26  -61,90  4980
 2017/10/21 01:56:19  55,72  22,40  1145 -28,19  -62,40  4978
 2017/10/21 01:56:52  44,76  19,12  1262 -26,11  -62,88  4975
 2017/10/21 01:57:25  36,22  15,68  1411 -24,04  -63,34  4972
 2017/10/21 01:57:58  29,64  12,41  1583 -21,96  -63,80  4970
 2017/10/21 01:58:31  24,51   9,43  1771 -19,88  -64,25  4968
 2017/10/21 01:59:05  20,45   6,73  1970 -17,80  -64,69  4965
 2017/10/21 01:59:38  17,17   4,28  2177 -15,72  -65,12  4963
 2017/10/21 02:00:11  14,48   2,05  2390 -13,63  -65,55  4961
 2017/10/21 02:00:44  12,24  -0,00  2606 -11,55  -65,97  4959

 Orbit 1823
-------------------------------------------------------------
 Time                  Az      El  Range   Lat    Lon   Footp
-------------------------------------------------------------
 2017/10/21 03:23:44 189,97   0,00  2640 -55,48  -77,36  5013
 2017/10/21 03:24:14 192,68   1,70  2457 -53,63  -78,21  5011
 2017/10/21 03:24:44 195,85   3,48  2280 -51,76  -79,01  5009
 2017/10/21 03:25:15 199,56   5,33  2110 -49,90  -79,75  5007
 2017/10/21 03:25:45 203,95   7,25  1951 -48,02  -80,45  5004
 2017/10/21 03:26:15 209,14   9,21  1805 -46,15  -81,10  5002
 2017/10/21 03:26:45 215,28  11,14  1676 -44,27  -81,72  5000
 2017/10/21 03:27:16 222,46  12,94  1567 -42,39  -82,32  4997
 2017/10/21 03:27:46 230,70  14,46  1484 -40,51  -82,88  4994
 2017/10/21 03:28:16 239,84  15,49  1430 -38,62  -83,42  4992
 2017/10/21 03:28:46 249,53  15,87  1411 -36,73  -83,94  4989
 2017/10/21 03:29:17 259,25  15,53  1426 -34,84  -84,44  4987
 2017/10/21 03:29:47 268,48  14,53  1475 -32,95  -84,92  4984
 2017/10/21 03:30:17 276,84  13,04  1555 -31,06  -85,39  4982
 2017/10/21 03:30:47 284,16  11,23  1660 -29,16  -85,85  4979
 2017/10/21 03:31:18 290,43   9,29  1787 -27,27  -86,29  4977
 2017/10/21 03:31:48 295,75   7,31  1931 -25,37  -86,73  4974
 2017/10/21 03:32:18 300,25   5,37  2088 -23,47  -87,15  4972
 2017/10/21 03:32:48 304,07   3,50  2256 -21,57  -87,57  4970
 2017/10/21 03:33:19 307,33   1,71  2431 -19,67  -87,97  4967

 Orbit 1829
-------------------------------------------------------------
 Time                  Az      El  Range   Lat    Lon   Footp
-------------------------------------------------------------
 2017/10/21 12:26:02  73,48   0,00  2586 -24,92  -47,28  4916
 2017/10/21 12:26:25  76,55   0,93  2487 -26,33  -47,60  4918
 2017/10/21 12:26:47  79,88   1,82  2395 -27,75  -47,92  4921
 2017/10/21 12:27:10  83,46   2,68  2311 -29,17  -48,26  4924
 2017/10/21 12:27:32  87,31   3,47  2235 -30,58  -48,59  4926
 2017/10/21 12:27:55  91,43   4,20  2170 -32,00  -48,94  4929
 2017/10/21 12:28:17  95,78   4,82  2115 -33,41  -49,29  4932
 2017/10/21 12:28:40 100,36   5,34  2071 -34,82  -49,66  4935
 2017/10/21 12:29:02 105,11   5,72  2040 -36,23  -50,03  4938
 2017/10/21 12:29:25 109,98   5,96  2022 -37,64  -50,41  4941
 2017/10/21 12:29:47 114,92   6,03  2018 -39,05  -50,80  4944
 2017/10/21 12:30:10 119,84   5,94  2026 -40,46  -51,21  4947
 2017/10/21 12:30:32 124,68   5,70  2048 -41,87  -51,63  4950
 2017/10/21 12:30:55 129,39   5,31  2083 -43,27  -52,06  4953
 2017/10/21 12:31:18 133,90   4,79  2130 -44,67  -52,51  4956
 2017/10/21 12:31:40 138,19   4,16  2188 -46,08  -52,97  4959
 2017/10/21 12:32:03 142,22   3,44  2257 -47,47  -53,46  4962
 2017/10/21 12:32:25 145,99   2,64  2336 -48,87  -53,96  4965
 2017/10/21 12:32:48 149,49   1,80  2422 -50,27  -54,49  4968
 2017/10/21 12:33:10 152,73   0,91  2517 -51,66  -55,05  4971
 2017/10/21 12:33:33 155,72  -0,00  2618 -53,05  -55,64  4974

 Orbit 1830
-------------------------------------------------------------
 Time                  Az      El  Range   Lat    Lon   Footp
-------------------------------------------------------------
 2017/10/21 13:57:14   6,64   0,00  2569 -11,54  -68,14  4896
 2017/10/21 13:57:49   6,01   2,35  2324 -13,73  -68,58  4899
 2017/10/21 13:58:24   5,23   4,98  2080 -15,91  -69,03  4902
 2017/10/21 13:58:58   4,25   8,01  1837 -18,09  -69,48  4905
 2017/10/21 13:59:33   2,97  11,61  1598 -20,27  -69,94  4908
 2017/10/21 14:00:07   1,21  16,08  1362 -22,45  -70,41  4912
 2017/10/21 14:00:42 358,63  21,88  1135 -24,63  -70,89  4915
 2017/10/21 14:01:16 354,42  29,86   921 -26,80  -71,39  4919
 2017/10/21 14:01:51 346,42  41,29   733 -28,97  -71,89  4923
 2017/10/21 14:02:25 326,81  56,59   598 -31,14  -72,41  4928
 2017/10/21 14:03:00 273,69  65,41   554 -33,31  -72,95  4932
 2017/10/21 14:03:34 228,60  53,29   622 -35,48  -73,51  4936
 2017/10/21 14:04:09 212,82  38,73   773 -37,64  -74,09  4941
 2017/10/21 14:04:43 205,96  28,24   968 -39,80  -74,70  4945
 2017/10/21 14:05:18 202,19  20,86  1185 -41,96  -75,34  4950
 2017/10/21 14:05:52 199,79  15,43  1414 -44,11  -76,01  4955
 2017/10/21 14:06:27 198,12  11,20  1650 -46,26  -76,72  4959
 2017/10/21 14:07:01 196,88   7,75  1890 -48,41  -77,48  4964
 2017/10/21 14:07:36 195,91   4,83  2132 -50,55  -78,29  4968
 2017/10/21 14:08:10 195,11   2,28  2376 -52,68  -79,16  4973
 2017/10/21 14:08:45 194,45  -0,00  2620 -54,81  -80,11  4977

 Orbit 1837
-------------------------------------------------------------
 Time                  Az      El  Range   Lat    Lon   Footp
-------------------------------------------------------------
 2017/10/22 01:31:14 146,02   0,00  2639 -50,74  -50,97  5010
 2017/10/22 01:31:44 143,07   1,64  2462 -48,88  -51,68  5007
 2017/10/22 01:32:14 139,68   3,33  2292 -47,01  -52,36  5005
 2017/10/22 01:32:44 135,76   5,09  2130 -45,13  -52,99  5002
 2017/10/22 01:33:14 131,21   6,90  1978 -43,25  -53,60  5000
 2017/10/22 01:33:44 125,90   8,72  1838 -41,38  -54,17  4997
 2017/10/22 01:34:15 119,74  10,50  1715 -39,49  -54,72  4995
 2017/10/22 01:34:45 112,64  12,14  1612 -37,61  -55,25  4992
 2017/10/22 01:35:15 104,61  13,50  1532 -35,72  -55,76  4989
 2017/10/22 01:35:45  95,79  14,43  1482 -33,84  -56,25  4987
 2017/10/22 01:36:15  86,50  14,79  1462 -31,95  -56,73  4984
 2017/10/22 01:36:46  77,16  14,51  1475 -30,05  -57,19  4981
 2017/10/22 01:37:16  68,22  13,64  1520 -28,16  -57,64  4979
 2017/10/22 01:37:46  60,03  12,30  1593 -26,27  -58,07  4976
 2017/10/22 01:38:16  52,75  10,67  1693 -24,37  -58,50  4974
 2017/10/22 01:38:46  46,41   8,87  1813 -22,47  -58,92  4972
 2017/10/22 01:39:17  40,97   7,02  1950 -20,58  -59,33  4969
 2017/10/22 01:39:47  36,30   5,18  2100 -18,68  -59,74  4967
 2017/10/22 01:40:17  32,30   3,39  2262 -16,78  -60,13  4965
 2017/10/22 01:40:47  28,85   1,66  2432 -14,88  -60,53  4963

 Orbit 1838
-------------------------------------------------------------
 Time                  Az      El  Range   Lat    Lon   Footp
-------------------------------------------------------------
 2017/10/22 03:04:33 182,49   0,00  2641 -55,95  -72,36  5016
 2017/10/22 03:05:06 184,46   2,06  2422 -53,93  -73,31  5013
 2017/10/22 03:05:39 186,85   4,28  2206 -51,90  -74,18  5011
 2017/10/22 03:06:12 189,79   6,73  1995 -49,86  -74,99  5009
 2017/10/22 03:06:44 193,48   9,43  1791 -47,82  -75,75  5006
 2017/10/22 03:07:17 198,19  12,45  1598 -45,78  -76,46  5003
 2017/10/22 03:07:50 204,32  15,79  1420 -43,73  -77,13  5000
 2017/10/22 03:08:23 212,40  19,37  1262 -41,68  -77,76  4998
 2017/10/22 03:08:56 223,00  22,89  1136 -39,62  -78,37  4995
 2017/10/22 03:09:29 236,39  25,70  1051 -37,57  -78,95  4992
 2017/10/22 03:10:02 251,88  26,87  1019 -35,51  -79,50  4989
 2017/10/22 03:10:35 267,51  25,89  1044 -33,44  -80,03  4986
 2017/10/22 03:11:08 281,23  23,18  1122 -31,38  -80,55  4983
 2017/10/22 03:11:41 292,17  19,66  1244 -29,32  -81,05  4981
 2017/10/22 03:12:14 300,54  16,03  1397 -27,25  -81,53  4978
 2017/10/22 03:12:47 306,90  12,63  1573 -25,18  -82,00  4975
 2017/10/22 03:13:20 311,79   9,56  1765 -23,11  -82,46  4973
 2017/10/22 03:13:53 315,62   6,81  1967 -21,04  -82,91  4970
 2017/10/22 03:14:26 318,68   4,33  2177 -18,96  -83,36  4968
 2017/10/22 03:14:59 321,17   2,07  2392 -16,89  -83,79  4965
 2017/10/22 03:15:32 323,23  -0,00  2611 -14,81  -84,22  4963

 Orbit 1845
-------------------------------------------------------------
 Time                  Az      El  Range   Lat    Lon   Footp
-------------------------------------------------------------
 2017/10/22 13:38:24  18,91   0,00  2570 -12,40  -63,54  4897
 2017/10/22 13:38:58  19,47   2,34  2325 -14,58  -63,98  4900
 2017/10/22 13:39:33  20,17   4,97  2082 -16,76  -64,43  4903
 2017/10/22 13:40:07  21,07   8,00  1839 -18,93  -64,89  4906
 2017/10/22 13:40:42  22,28  11,59  1600 -21,11  -65,35  4910
 2017/10/22 13:41:16  23,98  16,04  1365 -23,28  -65,83  4913
 2017/10/22 13:41:51  26,54  21,82  1138 -25,45  -66,31  4917
 2017/10/22 13:42:25  30,76  29,74   924 -27,62  -66,81  4921
 2017/10/22 13:43:00  38,85  41,02   737 -29,79  -67,32  4925
 2017/10/22 13:43:34  58,53  55,96   602 -31,96  -67,84  4930
 2017/10/22 13:44:08 109,82  64,48   559 -34,12  -68,39  4934
 2017/10/22 13:44:43 153,97  52,88   626 -36,28  -68,95  4939
 2017/10/22 13:45:17 169,97  38,59   775 -38,44  -69,54  4943
 2017/10/22 13:45:52 176,92  28,19   969 -40,59  -70,16  4948
 2017/10/22 13:46:26 180,66  20,85  1187 -42,74  -70,81  4953
 2017/10/22 13:47:01 182,97  15,43  1416 -44,89  -71,49  4957
 2017/10/22 13:47:35 184,52  11,20  1652 -47,03  -72,22  4962
 2017/10/22 13:48:10 185,61   7,75  1891 -49,17  -72,99  4967
 2017/10/22 13:48:44 186,42   4,83  2134 -51,31  -73,82  4971
 2017/10/22 13:49:18 187,04   2,28  2377 -53,43  -74,72  4976
 2017/10/22 13:49:53 187,51  -0,00  2621 -55,56  -75,69  4980

 Orbit 1846
-------------------------------------------------------------
 Time                  Az      El  Range   Lat    Lon   Footp
-------------------------------------------------------------
 2017/10/22 15:14:39 309,33   0,00  2577 -18,18  -88,41  4905
 2017/10/22 15:15:01 306,24   0,81  2491 -19,54  -88,70  4907
 2017/10/22 15:15:22 302,94   1,59  2411 -20,90  -88,99  4909
 2017/10/22 15:15:44 299,41   2,32  2338 -22,26  -89,28  4912
 2017/10/22 15:16:05 295,67   2,99  2273 -23,62  -89,58  4914
 2017/10/22 15:16:27 291,73   3,60  2217 -24,98  -89,88  4916
 2017/10/22 15:16:48 287,60   4,12  2171 -26,33  -90,19  4919
 2017/10/22 15:17:10 283,30   4,53  2134 -27,69  -90,50  4921
 2017/10/22 15:17:31 278,87   4,84  2109 -29,05  -90,82  4924
 2017/10/22 15:17:53 274,36   5,03  2094 -30,40  -91,15  4927
 2017/10/22 15:18:15 269,80   5,08  2091 -31,76  -91,48  4929
 2017/10/22 15:18:36 265,26   5,01  2099 -33,11  -91,81  4932
 2017/10/22 15:18:58 260,77   4,81  2118 -34,46  -92,16  4935
 2017/10/22 15:19:19 256,39   4,49  2148 -35,82  -92,51  4938
 2017/10/22 15:19:41 252,15   4,06  2188 -37,17  -92,87  4941
 2017/10/22 15:20:02 248,09   3,54  2238 -38,52  -93,25  4943
